{
  "toranomon_to_tokyotower_sakurada": {
    "description": "虎ノ門ヒルズ駅から東京タワーまで桜田通りベースの近似徒歩ルート",
    "startLabel": "虎ノ門ヒルズ駅",
    "endLabel": "東京タワー",
    "route2D": [
      [0, 139.74762388610776, 35.66728037489463],
      [20, 139.74641953951047, 35.66456246414062],
      [40, 139.74424024558465, 35.66227934759829],
      [60, 139.74294031605703, 35.65999616581598],
      [100, 139.74499628926793, 35.655831769448135],
      [110, 139.74541424160032, 35.65520481286661],
      [130, 139.74698960042394, 35.65844403546138],
      [140, 139.7455749925007, 35.65901872252147]
    ],
    "waypoints": [
      {
        "lon": 139.75112,
        "lat": 35.65715,
        "label": "神谷町交差点付近",
        "color": "ORANGE"
      }
    ],
    "flyTo": {
      "lon": 139.7508,
      "lat": 35.6588,
      "height": 1200,
      "headingDeg": 10,
      "pitchDeg": -40
    }
  },

  "shibuya_to_harajuku_catstreet": {
    "description": "渋谷駅から原宿駅までの近似徒歩ルート",
    "startLabel": "渋谷駅",
    "endLabel": "原宿駅",
    "route2D": [
      [0, 139.701636, 35.658034],
      [20, 139.702320, 35.659388],
      [40, 139.703478, 35.661062],
      [60, 139.704918, 35.663048],
      [80, 139.706186, 35.665083],
      [100, 139.706781, 35.667091]
    ],
    "waypoints": [
      {
        "lon": 139.7048,
        "lat": 35.6630,
        "label": "キャットストリート付近",
        "color": "ORANGE"
      }
    ],
    "flyTo": {
      "lon": 139.7044,
      "lat": 35.6627,
      "height": 1000,
      "headingDeg": 15,
      "pitchDeg": -42
    }
  },

  "tokyostation_to_imperialpalace": {
    "description": "東京駅から皇居方面までの近似徒歩ルート",
    "startLabel": "東京駅",
    "endLabel": "皇居",
    "route2D": [
      [0, 139.767125, 35.681236],
      [20, 139.765945, 35.680952],
      [40, 139.764563, 35.680418],
      [60, 139.763062, 35.679736],
      [80, 139.761309, 35.678905],
      [100, 139.759779, 35.678222]
    ],
    "waypoints": [
      {
        "lon": 139.7638,
        "lat": 35.6801,
        "label": "行幸通り付近",
        "color": "ORANGE"
      }
    ],
    "flyTo": {
      "lon": 139.7632,
      "lat": 35.6798,
      "height": 1100,
      "headingDeg": 5,
      "pitchDeg": -40
    }
  },

  "ueno_to_asakusa": {
    "description": "上野駅から浅草までの近似徒歩ルート",
    "startLabel": "上野駅",
    "endLabel": "浅草",
    "route2D": [
      [0, 139.777254, 35.713768],
      [20, 139.779181, 35.712905],
      [40, 139.781340, 35.711996],
      [60, 139.783747, 35.710958],
      [80, 139.786155, 35.709892],
      [100, 139.788362, 35.708893],
      [120, 139.790455, 35.707948]
    ],
    "waypoints": [
      {
        "lon": 139.7848,
        "lat": 35.7105,
        "label": "かっぱ橋方面",
        "color": "ORANGE"
      }
    ],
    "flyTo": {
      "lon": 139.7838,
      "lat": 35.7108,
      "height": 1200,
      "headingDeg": 18,
      "pitchDeg": -45
    }
  },

  "asakusa_to_skytree": {
    "description": "浅草から東京スカイツリーまでの近似徒歩ルート",
    "startLabel": "浅草",
    "endLabel": "東京スカイツリー",
    "route2D": [
      [0, 139.796655, 35.710063],
      [20, 139.798606, 35.709947],
      [40, 139.800645, 35.709849],
      [60, 139.803016, 35.709711],
      [80, 139.805457, 35.709571],
      [100, 139.808030, 35.709411],
      [120, 139.810700, 35.709152]
    ],
    "waypoints": [
      {
        "lon": 139.8044,
        "lat": 35.7096,
        "label": "隅田川東側",
        "color": "ORANGE"
      }
    ],
    "flyTo": {
      "lon": 139.8039,
      "lat": 35.7095,
      "height": 1300,
      "headingDeg": 20,
      "pitchDeg": -43
    }
  },

  "shinjuku_to_tocho": {
    "description": "新宿駅から東京都庁までの近似徒歩ルート",
    "startLabel": "新宿駅",
    "endLabel": "東京都庁",
    "route2D": [
      [0, 139.700464, 35.690083],
      [15, 139.699145, 35.689762],
      [30, 139.697786, 35.689422],
      [45, 139.696471, 35.689071],
      [60, 139.695126, 35.688733],
      [75, 139.693830, 35.688432]
    ],
    "waypoints": [
      {
        "lon": 139.6969,
        "lat": 35.6892,
        "label": "西新宿高層街",
        "color": "ORANGE"
      }
    ],
    "flyTo": {
      "lon": 139.6967,
      "lat": 35.6892,
      "height": 1000,
      "headingDeg": -15,
      "pitchDeg": -45
    }
  },

  "tokyoheliport_to_tocho": {
    "description": "東京ヘリポートから東京都庁までの近似ヘリ飛行ルート",
    "startLabel": "東京ヘリポート",
    "endLabel": "東京都庁",
    "route2D": [
      [0, 139.82661, 35.64643],
      [20, 139.8104, 35.6509],
      [40, 139.7908, 35.6560],
      [60, 139.7698, 35.6606],
      [80, 139.7485, 35.6628],
      [100, 139.7262, 35.6721],
      [120, 139.7078, 35.6828],
      [140, 139.6917, 35.6895]
    ],
    "waypoints": [
      {
        "lon": 139.7908,
        "lat": 35.6560,
        "label": "豊洲上空",
        "color": "ORANGE"
      },
      {
        "lon": 139.7485,
        "lat": 35.6628,
        "label": "東京タワー西側上空",
        "color": "YELLOW"
      }
    ],
    "flyTo": {
      "lon": 139.7485,
      "lat": 35.6628,
      "height": 2200,
      "headingDeg": -20,
      "pitchDeg": -35
    }
  },

  "odaiba_seasidepark_to_fujitv": {
    "description": "お台場海浜公園からフジテレビ付近までの近似徒歩ルート",
    "startLabel": "お台場海浜公園",
    "endLabel": "フジテレビ",
    "route2D": [
      [0, 139.776927, 35.629977],
      [20, 139.778077, 35.630459],
      [40, 139.779333, 35.630997],
      [60, 139.780684, 35.631504],
      [80, 139.782066, 35.631951]
    ],
    "waypoints": [
      {
        "lon": 139.7799,
        "lat": 35.6312,
        "label": "デックス東京ビーチ付近",
        "color": "ORANGE"
      }
    ],
    "flyTo": {
      "lon": 139.7799,
      "lat": 35.6311,
      "height": 950,
      "headingDeg": 25,
      "pitchDeg": -42
    }
  },

  "tokyotower_loop": {
    "description": "東京タワー周辺を周回する近似ルート",
    "startLabel": "東京タワー南側",
    "endLabel": "東京タワー南側",
    "route2D": [
      [0, 139.745450, 35.657400],
      [20, 139.746230, 35.658130],
      [40, 139.746950, 35.658860],
      [60, 139.746310, 35.659520],
      [80, 139.745260, 35.659350],
      [100, 139.744540, 35.658620],
      [120, 139.744720, 35.657820],
      [140, 139.745450, 35.657400]
    ],
    "waypoints": [
      {
        "lon": 139.7462,
        "lat": 35.6588,
        "label": "東京タワー北側",
        "color": "ORANGE"
      }
    ],
    "flyTo": {
      "lon": 139.7459,
      "lat": 35.6586,
      "height": 900,
      "headingDeg": 12,
      "pitchDeg": -48
    }
  },

  "imperialpalace_loop": {
    "description": "皇居一周の近似ルート",
    "startLabel": "桜田門付近",
    "endLabel": "桜田門付近",
    "route2D": [
      [0, 139.752750, 35.677689],
      [30, 139.756330, 35.681069],
      [60, 139.762179, 35.684472],
      [90, 139.769037, 35.685266],
      [120, 139.774094, 35.682415],
      [150, 139.775490, 35.677123],
      [180, 139.770960, 35.672322],
      [210, 139.763106, 35.671226],
      [240, 139.756216, 35.672867],
      [270, 139.752750, 35.677689]
    ],
    "waypoints": [
      {
        "lon": 139.7635,
        "lat": 35.6850,
        "label": "大手門方面",
        "color": "ORANGE"
      },
      {
        "lon": 139.7721,
        "lat": 35.6792,
        "label": "竹橋方面",
        "color": "CYAN"
      }
    ],
    "flyTo": {
      "lon": 139.7641,
      "lat": 35.6785,
      "height": 2200,
      "headingDeg": 0,
      "pitchDeg": -55
    }
  },

  "kokyo_running_loop": {
    "description": "皇居外周を一周するランニングコース（約5km）",
    "startLabel": "桜田門付近",
    "endLabel": "桜田門付近",
    "route2D": [
      [0, 139.7563589518495, 35.67780031495816],
      [49, 139.7598301318632, 35.683180794535865],
      [63, 139.76036510414465, 35.68486384671288],
      [69, 139.76085228346054, 35.68543541913806],
      [84, 139.76138565886143, 35.68727210631772],
      [101, 139.76074189045968, 35.689252714331275],
      [109, 139.75980118766324, 35.68997347369577],
      [117, 139.7586527207299, 35.690230717160155],
      [132, 139.75628575387483, 35.69058192597214],
      [154, 139.75337136094464, 35.689345150939936],
      [157, 139.7528946549253, 35.68926038000134],
      [160, 139.75254596777654, 35.68930830635019],
      [163, 139.75208080246406, 35.68951122527787],
      [168, 139.751327710064, 35.68933957501915],
      [187, 139.74883446019285, 35.68826734657254],
      [193, 139.74796268868064, 35.687998703082954],
      [210, 139.74530172430352, 35.68804048400791],
      [216, 139.74510663554295, 35.687340711698226],
      [233, 139.7445389496397, 35.68526041005009],
      [242, 139.74432477785018, 35.68411689922785],
      [248, 139.7442692715842, 35.68346594476273],
      [256, 139.7444786359713, 35.682432408964644],
      [263, 139.7449420905478, 35.681615891218],
      [277, 139.74585038190673, 35.68013459513439],
      [280, 139.7461346960434, 35.67987968445713],
      [288, 139.74732023239437, 35.67951583617216],
      [292, 139.7476876950394, 35.67923042108832],
      [299, 139.7483609294979, 35.67854629223119],
      [303, 139.74871473968014, 35.678090187093254],
      [308, 139.74921763129777, 35.67763350469612],
      [311, 139.7497152247836, 35.677463791995585],
      [318, 139.7507481813012, 35.67736142968214],
      [325, 139.75166043608053, 35.67749357259796],
      [332, 139.75262213124216, 35.67777599495903],
      [337, 139.75329834810324, 35.678023437585864],
      [342, 139.7537444694751, 35.67861006228652],
      [345, 139.75423799590104, 35.678474978935434],
      [360, 139.75634621222622, 35.67781481022145]
    ],
    "waypoints": [
      {
        "lon": 139.7614,
        "lat": 35.6873,
        "label": "大手門方面",
        "color": "ORANGE"
      },
      {
        "lon": 139.7453,
        "lat": 35.6880,
        "label": "半蔵門方面",
        "color": "CYAN"
      }
    ],
    "flyTo": {
      "lon": 139.7530,
      "lat": 35.6838,
      "height": 2800,
      "headingDeg": 0,
      "pitchDeg": -58
    }
  },

  "ginza_to_tsukiji": {
    "description": "銀座から築地までの近似徒歩ルート",
    "startLabel": "銀座",
    "endLabel": "築地",
    "route2D": [
      [0, 139.764936, 35.671669],
      [20, 139.765296, 35.670183],
      [40, 139.765671, 35.668525],
      [60, 139.766093, 35.666868],
      [80, 139.766556, 35.665279],
      [100, 139.767026, 35.663796]
    ],
    "waypoints": [
      {
        "lon": 139.7659,
        "lat": 35.6679,
        "label": "東銀座付近",
        "color": "ORANGE"
      }
    ],
    "flyTo": {
      "lon": 139.7659,
      "lat": 35.6678,
      "height": 1000,
      "headingDeg": 8,
      "pitchDeg": -42
    }
  }
}
